{"Results":[{"Address":null,"Latitude":47.6050135307014,"Longitude":-122.33246888034046,"Name":"new evt","@metadata":{"Raven-Entity-Name":"Event","@id":"Events/12","Temp-Index-Score":0.9199573,"Last-Modified":"2014-06-15T22:15:32.9135801Z","Raven-Last-Modified":"2014-06-15T22:15:32.9135801","@etag":"01000000-0000-0006-0000-000000000001"}},{"Address":null,"Latitude":47.601634282618761,"Longitude":-122.3336130939424,"Name":"new evt","@metadata":{"Raven-Entity-Name":"Event","@id":"Events/13","Temp-Index-Score":0.9199573,"Last-Modified":"2014-06-15T22:15:35.8979892Z","Raven-Last-Modified":"2014-06-15T22:15:35.8979892","@etag":"01000000-0000-0006-0000-000000000002"}},{"Address":null,"Latitude":47.602792913094163,"Longitude":-122.33389916829765,"Name":"new evt","@metadata":{"Raven-Entity-Name":"Event","@id":"Events/14","Temp-Index-Score":0.9199573,"Last-Modified":"2014-06-15T22:15:37.9170162Z","Raven-Last-Modified":"2014-06-15T22:15:37.9170162","@etag":"01000000-0000-0006-0000-000000000003"}},{"Address":null,"Latitude":47.60407249443233,"Longitude":-122.33569633215666,"Name":"new evt","@metadata":{"Raven-Entity-Name":"Event","@id":"Events/15","Temp-Index-Score":0.9199573,"Last-Modified":"2014-06-15T22:15:59.2732493Z","Raven-Last-Modified":"2014-06-15T22:15:59.2732493","@etag":"01000000-0000-0006-0000-000000000004"}},{"Address":null,"Latitude":47.599579878151417,"Longitude":-122.33454792760313,"Name":"plop","@metadata":{"Raven-Entity-Name":"Event","@id":"Events/16","Temp-Index-Score":0.9199573,"Last-Modified":"2014-06-16T07:45:00.5418449Z","Raven-Last-Modified":"2014-06-16T07:45:00.5418449","@etag":"01000000-0000-0008-0000-000000000002"}},{"Address":null,"Latitude":47.601872161030769,"Longitude":-122.32953571714461,"Name":"hey","@metadata":{"Raven-Entity-Name":"Event","@id":"Events/17","Temp-Index-Score":0.9199573,"Last-Modified":"2014-06-16T07:53:15.1016297Z","Raven-Last-Modified":"2014-06-16T07:53:15.1016297","@etag":"01000000-0000-0008-0000-000000000004"}},{"Address":null,"Latitude":47.587972451001406,"Longitude":-122.33125291764736,"Name":"new evt","@metadata":{"Raven-Entity-Name":"Event","@id":"Events/18","Temp-Index-Score":0.9199573,"Last-Modified":"2014-06-16T07:53:20.3695592Z","Raven-Last-Modified":"2014-06-16T07:53:20.3695592","@etag":"01000000-0000-0008-0000-000000000005"}},{"Address":null,"Latitude":47.597227580845356,"Longitude":-122.33117546886206,"Name":"new evt","@metadata":{"Raven-Entity-Name":"Event","@id":"Events/19","Temp-Index-Score":0.9199573,"Last-Modified":"2014-06-16T09:31:36.2265021Z","Raven-Last-Modified":"2014-06-16T09:31:36.2265021","@etag":"01000000-0000-0008-0000-000000000006"}},{"Address":null,"Latitude":47.59597247466445,"Longitude":-122.33656344003975,"Name":"new evt","@metadata":{"Raven-Entity-Name":"Event","@id":"Events/20","Temp-Index-Score":0.9199573,"Last-Modified":"2014-06-16T09:36:31.8645340Z","Raven-Last-Modified":"2014-06-16T09:36:31.8645340","@etag":"01000000-0000-0008-0000-000000000007"}},{"Address":null,"Latitude":47.5923883728683,"Longitude":-122.32833257876337,"Name":"new evt","@metadata":{"Raven-Entity-Name":"Event","@id":"Events/21","Temp-Index-Score":0.9199573,"Last-Modified":"2014-06-16T09:43:02.2329094Z","Raven-Last-Modified":"2014-06-16T09:43:02.2329094","@etag":"01000000-0000-0008-0000-000000000008"}}],"Includes":[],"IsStale":false,"IndexTimestamp":"2014-06-16T09:43:02.2329094Z","TotalResults":10,"SkippedResults":0,"IndexName":"Raven/DocumentsByEntityName","IndexEtag":"01000000-0000-0008-0000-000000000008","ResultEtag":"B8EC7426-D32D-0A97-D74E-715CE46058AE","Highlightings":{},"NonAuthoritativeInformation":false,"LastQueryTime":"2014-06-17T22:15:30.7766523Z","DurationMilliseconds":7}